halte_ID,halte_Name,halte_City,halteLat,halteLon
B00285P,Cut Meutia,Jakarta Pusat,-6.187542,106.83294
B06047P,Gold Coast,Jakarta Utara,-6.102693,106.74065
B01953P,Kel. Tanah Tinggi,Jakarta Pusat,-6.183861,106.84926
B04457P,Sbr. SMKN 63,Jakarta Selatan,-6.35165,106.79853
P00205,RS Harapan Kita Arah Selatan,Jakarta Barat,-6.185221,106.79709
B02889P,Pluit Sakti,Jakarta Utara,-6.122386,106.79432
B00787P,Icon Residence,Jakarta Barat,-6.201827,106.78268
B03954P,Sbr. Klinik Yadika Petukangan,Jakarta Selatan,-6.248516,106.75488
B02914P,Polsek Tj. Priok,Jakarta Utara,-6.115316,106.88029
